<?xml version="1.0" encoding="UTF-8" standalone="yes"?>
<map>
	<city>
		<type>sk</type>
		<name>Martin</name>
		<latitude>49.065</latitude>  
		<longitude>18.921944</longitude>      
	</city>
	<city>
		<type>sk</type>
		<name>Banská Štiavnica</name>
		<latitude>48.458056</latitude>  
		<longitude>18.896389</longitude>      
	</city>
	<city>
		<type>sk</type>
		<name>Bratislava</name>
		<latitude>48.1534754</latitude>  
		<longitude>17.1310172</longitude>      
	</city>
	<city>
		<type>sk</type>
		<name>Hlohovec</name>
		<latitude>48.424255</latitude>  
		<longitude>17.8032682</longitude>      
	</city>
	<city>
		<type>sk</type>
		<name>Košice</name>
		<latitude>48.7062853</latitude>  
		<longitude>21.2657228</longitude>      
	</city>
	<city>
		<type>sk</type>
		<name>Brezno</name>
		<latitude>48.8395314</latitude>  
		<longitude>19.6252038</longitude>      
	</city>
	<city>
		<type>sk</type>
		<name>Zvolen</name>
		<latitude>48.5582383</latitude>  
		<longitude>19.1098674</longitude>      
	</city>
	<city>
		<type>sk</type>
		<name>Senica</name>
		<latitude>48.6685585</latitude>  
		<longitude>17.3296203</longitude>      
	</city>
	<city>
		<type>sk</type>
		<name>Hurbanovo</name>
		<latitude>47.869844</latitude>  
		<longitude>18.1568787</longitude>      
	</city>
	<city>
		<type>sk</type>
		<name>Michalovce</name>
		<latitude>48.7533348</latitude>  
		<longitude>21.8819298</longitude>      
	</city>
	<city>
		<type>sk</type>
		<name>Poprad</name>
		<latitude>49.0588308</latitude>  
		<longitude>20.2624286</longitude>      
	</city>
	<city>
		<type>sk</type>
		<name>Levice</name>
		<latitude>48.2166204</latitude>  
		<longitude>18.6156231</longitude>      
	</city>
	<city>
		<type>sk</type>
		<name>Komárno</name>
		<latitude>47.7624535</latitude>  
		<longitude>18.1286536</longitude>      
	</city>
	<city>
		<type>sk</type>
		<name>Prešov</name>
		<latitude>49.001761</latitude>  
		<longitude>21.23939</longitude>      
	</city>
	<city>
		<type>sk</type>
		<name>Trenčín</name>
		<latitude>48.8937723</latitude>  
		<longitude>18.0366078</longitude>      
	</city>
	<city>
		<type>sk</type>
		<name>Trnava</name>
		<latitude>48.3806596</latitude>  
		<longitude>17.580504</longitude>      
	</city>
	<city>
		<type>sk</type>
		<name>Nitra</name>
		<latitude>48.3074974</latitude>  
		<longitude>18.0900062</longitude>      
	</city>
	<city>
		<type>sk</type>
		<name>Banská Bystrica</name>
		<latitude>48.7311573</latitude>  
		<longitude>19.139443</longitude>      
	</city>
	<city>
		<type>sk</type>
		<name>Žilina</name>
		<latitude>49.2193977</latitude>  
		<longitude>18.7410295</longitude>      
	</city>
	<city>
		<type>sk</type>
		<name>Liptovský Mikuláš</name>
		<latitude>49.0830275</latitude>  
		<longitude>19.6088422</longitude>      
	</city>
	<city>
		<type>sk</type>
		<name>Ružomberok</name>
		<latitude>49.0848775</latitude>  
		<longitude>19.3031792</longitude>      
	</city>
	<city>
		<type>sk</type>
		<name>Púchov</name>
		<latitude>49.1218086</latitude>  
		<longitude>18.3276622</longitude>      
	</city>
	<city>
		<type>sk</type>
		<name>Senec</name>
		<latitude>48.2158606</latitude>  
		<longitude>17.4055374</longitude>      
	</city>
	<city>
		<type>sk</type>
		<name>Galanta</name>
		<latitude>48.1893478</latitude>  
		<longitude>17.7256446</longitude>      
	</city>
	<city>
		<type>sk</type>
		<name>Humenné</name>
		<latitude>48.9328297</latitude>  
		<longitude>21.9077596</longitude>      
	</city>
	<city>
		<type>sk</type>
		<name>Bardejov</name>
		<latitude>49.2953016</latitude>  
		<longitude>21.2775898</longitude>      
	</city>
	<city>
		<type>sk</type>
		<name>Rimavská Sobota</name>
		<latitude>48.3812555</latitude>  
		<longitude>20.0191896</longitude>      
	</city>
	<city>
		<type>eu</type>
		<name>Madrid</name>
		<latitude>40.383333</latitude>  
		<longitude>-3.716667</longitude>      
	</city>
	<city>
		<type>eu</type>
		<name>Rome, Roma, Rím</name>
		<latitude>41.9</latitude>  
		<longitude>12.5</longitude>      
	</city>   
	<city>
		<type>eu</type>
		<name>Londýn, London</name>
		<latitude>51.507222</latitude>  
		<longitude>-0.1275</longitude>      
	</city> 
	<city>
		<type>eu</type>
		<name>Lisabon, Lisboa</name>
		<latitude>38.7222915</latitude>  
		<longitude>-9.1397928</longitude>      
	</city>
	<city>
		<type>eu</type>
		<name>Calais</name>
		<latitude>50.9523869</latitude>  
		<longitude>1.857267</longitude>      
	</city>
	<city>
		<type>eu</type>
		<name>Hamburg</name>
		<latitude>53.5541519</latitude>  
		<longitude>9.9880534</longitude>      
	</city>
	<city>
		<type>eu</type>
		<name>Berlín, Berlin</name>
		<latitude>52.5208429</latitude>  
		<longitude>13.4077346</longitude>      
	</city>
	<city>
		<type>eu</type>
		<name>Praha, Prague</name>
		<latitude>50.0764156</latitude>  
		<longitude>14.4306201</longitude>      
	</city>
	<city>
		<type>eu</type>
		<name>Štokholm, Stockholm</name>
		<latitude>59.3293777</latitude>  
		<longitude>18.0682135</longitude>      
	</city>
	<city>
		<type>eu</type>
		<name>Oslo</name>
		<latitude>59.9140548</latitude>  
		<longitude>10.7497434</longitude>      
	</city>
	<city>
		<type>eu</type>
		<name>Paríž, Paris</name>
		<latitude>48.8602161</latitude>  
		<longitude>2.3373806</longitude>      
	</city>
	<city>
		<type>eu</type>
		<name>Frankfurt, Frankfurt nad Mohanom, Frankfurt am Main, Frankfurt aus dem Main</name>
		<latitude>50.1213479</latitude>  
		<longitude>8.4964809</longitude>      
	</city>
	<city>
		<type>eu</type>
		<name>Ljubljana</name>
		<latitude>46.0662151</latitude>  
		<longitude>14.4620593</longitude>      
	</city>
	<city>
		<type>eu</type>
		<name>Milan, Milano</name>
		<latitude>45.4654642</latitude>  
		<longitude>9.1855954</longitude>      
	</city>
	<city>
		<type>eu</type>
		<name>München, Munich, Mníchov</name>
		<latitude>48.139144</latitude>  
		<longitude>11.585252</longitude>      
	</city>
	<city>
		<type>eu</type>
		<name>Kyjev, Kiev</name>
		<latitude>50.4509714</latitude>  
		<longitude>30.5225188</longitude>      
	</city>
	<city>
		<type>eu</type>
		<name>Moskva, Moscow</name>
		<latitude>55.7524726</latitude>  
		<longitude>37.619531</longitude>      
	</city>
	<city>
		<type>eu</type>
		<name>Kodaň, Copenhagen</name>
		<latitude>55.6747366</latitude>  
		<longitude>12.5798478</longitude>      
	</city>
	<city>
		<type>eu</type>
		<name>Sofia</name>
		<latitude>42.6976313</latitude>  
		<longitude>23.3217921</longitude>      
	</city>
	<city>
		<type>eu</type>
		<name>Barcelona</name>
		<latitude>41.4033086</latitude>  
		<longitude>2.1866508</longitude>      
	</city>
	<city>
		<type>eu</type>
		<name>Viedeň, Wien</name>
		<latitude>48.2083689</latitude>  
		<longitude>16.3733084</longitude>      
	</city>
	<city>
		<type>eu</type>
		<name>Varšava, Warszawa</name>
		<latitude>52.229748</latitude>  
		<longitude>21.0118266</longitude>      
	</city>
	<city>
		<type>eu</type>
		<name>Amsterdam</name>
		<latitude>52.3703334</latitude>  
		<longitude>4.894812</longitude>      
	</city>
	<city>
		<type>eu</type>
		<name>Sarajevo</name>
		<latitude>43.8562435</latitude>  
		<longitude>18.4129058</longitude>      
	</city>
	<city>
		<type>eu</type>
		<name>Helsinki</name>
		<latitude>60.1730349</latitude>  
		<longitude>24.9409544</longitude>      
	</city>
	<city>
		<type>eu</type>
		<name>Riga</name>
		<latitude>56.9493656</latitude>  
		<longitude>24.105069</longitude>      
	</city>
	<city>
		<type>eu</type>
		<name>Budapest</name>
		<latitude>47.4983741</latitude>  
		<longitude>19.0406933</longitude>      
	</city>
	<city>
		<type>eu</type>
		<name>Bratislava</name>
		<latitude>48.1458569</latitude>  
		<longitude>17.10749</longitude>      
	</city>
	<city>
		<type>eu</type>
		<name>Dublin</name>
		<latitude>53.3480355</latitude>  
		<longitude>-6.2638436</longitude>      
	</city>
	<city>
		<type>eu</type>
		<name>Atény, Athens</name>
		<latitude>37.9839401</latitude>  
		<longitude>23.72905</longitude>      
	</city>
	<city>
		<type>eu</type>
		<name>Vilnus, Vilnius</name>
		<latitude>54.6869381</latitude>  
		<longitude>25.2796876</longitude>      
	</city>
	<city>
		<type>eu</type>
		<name>Luxemburg, Luxembourg</name>
		<latitude>49.6111772</latitude>  
		<longitude>6.1306141</longitude>      
	</city>
	<city>
		<type>eu</type>
		<name>Brusel, Brussel, Bruxelles</name>
		<latitude>50.8507936</latitude>  
		<longitude>4.3508827</longitude>      
	</city>
	<city>
		<type>eu</type>
		<name>Zagreb, Zahreb</name>
		<latitude>45.8041386</latitude>  
		<longitude>15.9783356</longitude>      
	</city>
</map>
